{
  "provinces": [
    {"name": "Newfoundland and Labrador", "code": "NL", "payment": 1413, "fullName": "Newfoundland"},
    {"name": "Prince Edward Island", "code": "PE", "payment": 1684, "fullName": "Prince Edward Island"},
    {"name": "Nova Scotia", "code": "NS", "payment": 1590, "fullName": "Nova Scotia"},
    {"name": "New Brunswick", "code": "NB", "payment": 1320, "fullName": "New Brunswick"},
    {"name": "Quebec", "code": "QC", "payment": 1410, "fullName": "Québec"},
    {"name": "Ontario", "code": "ON", "payment": 2452, "fullName": "Ontario"},
    {"name": "Manitoba", "code": "MB", "payment": 1517, "fullName": "Manitoba"},
    {"name": "Saskatchewan", "code": "SK", "payment": 2055, "fullName": "Saskatchewan"},
    {"name": "Alberta", "code": "AB", "payment": 1992, "fullName": "Alberta"},
    {"name": "British Columbia", "code": "BC", "payment": 2617, "fullName": "British Columbia"}
  ],
  "cmas": [
    {"name": "St. John's", "province": "NL", "payment": 1551, "lat": 47.5615, "lon": -52.7126},
    {"name": "Charlottetown", "province": "PE", "payment": 1585, "lat": 46.2382, "lon": -63.1311},
    {"name": "Halifax", "province": "NS", "payment": 1815, "lat": 44.6488, "lon": -63.5752},
    {"name": "Moncton", "province": "NB", "payment": 1384, "lat": 46.0878, "lon": -64.7782},
    {"name": "Saint John", "province": "NB", "payment": 1398, "lat": 45.2733, "lon": -66.0633},
    {"name": "Saguenay", "province": "QC", "payment": 969, "lat": 48.4284, "lon": -71.0657},
    {"name": "Québec City", "province": "QC", "payment": 1236, "lat": 46.8139, "lon": -71.2080},
    {"name": "Sherbrooke", "province": "QC", "payment": 1272, "lat": 45.4042, "lon": -71.8929},
    {"name": "Trois-Rivières", "province": "QC", "payment": 994, "lat": 46.3432, "lon": -72.5428},
    {"name": "Montréal", "province": "QC", "payment": 1787, "lat": 45.5017, "lon": -73.5673},
    {"name": "Ottawa-Gatineau", "province": "ON", "payment": 1907, "lat": 45.4215, "lon": -75.6972},
    {"name": "Kingston", "province": "ON", "payment": 1825, "lat": 44.2312, "lon": -76.4860},
    {"name": "Peterborough", "province": "ON", "payment": 2261, "lat": 44.3091, "lon": -78.3197},
    {"name": "Oshawa", "province": "ON", "payment": 2494, "lat": 43.8971, "lon": -78.8658},
    {"name": "Toronto", "province": "ON", "payment": 2904, "lat": 43.6532, "lon": -79.3832},
    {"name": "Hamilton", "province": "ON", "payment": 2425, "lat": 43.2557, "lon": -79.8711},
    {"name": "St. Catharines-Niagara", "province": "ON", "payment": 1876, "lat": 43.1594, "lon": -79.2469},
    {"name": "Kitchener-Cambridge-Waterloo", "province": "ON", "payment": 2239, "lat": 43.4516, "lon": -80.4925},
    {"name": "Brantford", "province": "ON", "payment": 1999, "lat": 43.1394, "lon": -80.2644},
    {"name": "Guelph", "province": "ON", "payment": 2189, "lat": 43.5448, "lon": -80.2482},
    {"name": "London", "province": "ON", "payment": 1939, "lat": 42.9849, "lon": -81.2453},
    {"name": "Windsor", "province": "ON", "payment": 1693, "lat": 42.3149, "lon": -83.0364},
    {"name": "Barrie", "province": "ON", "payment": 2283, "lat": 44.3894, "lon": -79.9306},
    {"name": "Greater Sudbury", "province": "ON", "payment": 1727, "lat": 46.4917, "lon": -80.9930},
    {"name": "Thunder Bay", "province": "ON", "payment": 1612, "lat": 48.3809, "lon": -89.2477},
    {"name": "Winnipeg", "province": "MB", "payment": 1525, "lat": 49.8951, "lon": -97.1384},
    {"name": "Regina", "province": "SK", "payment": 1641, "lat": 50.4452, "lon": -104.6189},
    {"name": "Saskatoon", "province": "SK", "payment": 1789, "lat": 52.1332, "lon": -106.6700},
    {"name": "Calgary", "province": "AB", "payment": 2124, "lat": 51.0447, "lon": -114.0719},
    {"name": "Edmonton", "province": "AB", "payment": 1820, "lat": 53.5461, "lon": -113.4938},
    {"name": "Kelowna", "province": "BC", "payment": 2436, "lat": 49.8880, "lon": -119.4960},
    {"name": "Abbotsford-Mission", "province": "BC", "payment": 2589, "lat": 49.0504, "lon": -122.3045},
    {"name": "Vancouver", "province": "BC", "payment": 2960, "lat": 49.2827, "lon": -123.1207},
    {"name": "Victoria", "province": "BC", "payment": 2579, "lat": 48.4284, "lon": -123.3656}
  ],
  "quarters": ["2012Q3", "2012Q4", "2013Q1", "2013Q2", "2013Q3", "2013Q4", "2014Q1", "2014Q2", "2014Q3", "2014Q4", "2015Q1", "2015Q2", "2015Q3", "2015Q4", "2016Q1", "2016Q2", "2016Q3", "2016Q4", "2017Q1", "2017Q2", "2017Q3", "2017Q4", "2018Q1", "2018Q2", "2018Q3", "2018Q4", "2019Q1", "2019Q2", "2019Q3", "2019Q4", "2020Q1", "2020Q2", "2020Q3", "2020Q4", "2021Q1", "2021Q2", "2021Q3", "2021Q4", "2022Q1", "2022Q2", "2022Q3", "2022Q4", "2023Q1", "2023Q2", "2023Q3", "2023Q4", "2024Q1", "2024Q2", "2024Q3", "2024Q4", "2025Q1", "2025Q2"],
  "currentQuarter": "2025Q2",
  "nationalAverage": 2006
}

